  {"name": "Aardvark Canyon (South Fork)","state": "UT","area": "Escalante","coordinates": "37.804722222222, -111.23833333333","rating": "3B III R","minTime": "7 hr","maxTime": "8 hr","distance": "4.2 mi","totalRaps": 2,"longestRap": "140 ft"}
  {"name": "Achilles Canyon","state": "CA","area": "Nopah Range","coordinates": "36.041111111111, -116.09416666667","rating": "3A IV","minTime": "","maxTime": "","distance": "14.2 mi","totalRaps": 4,"longestRap": "300 ft"}
  {"name": "Allison Mine Loop","state": "CA","area": "East Fork San Gabriel","coordinates": "34.271388888889, -117.72861111111","rating": "3A III","minTime": "","maxTime": "8.5 hr","distance": "8.3 mi","totalRaps": 3,"longestRap": "80 ft"}
  {"name": "Annette Canyon","state": "CA","area": "Castaic Lake","coordinates": "34.596111111111, -118.56638888889","rating": "3A II","minTime": "","maxTime": "","distance": "2.09 mi","totalRaps": 6,"longestRap": "90 ft"}
  {"name": "Antenna Canyon","state": "NV","area": "State Line Hills","coordinates": "35.683055555556, -115.43972222222","rating": "3A III","minTime": "6 hr","maxTime": "8 hr","distance": "2.873 mi","totalRaps": 9,"longestRap": "175 ft"}
  {"name": "Apollo Canyon","state": "CA","area": "Black Mountains North","coordinates": "36.355277777778, -116.78722222222","rating": "3A IV","minTime": "","maxTime": "8 hr","distance": "8.3 mi","totalRaps": 5,"longestRap": "200 ft"}
  {"name": "Arapaho Creek (Front Range)","state": "CO","area": "Front Range (Colorado)","coordinates": "39.899722222222, -105.65444444444","rating": "3C2 III","minTime": "1.5 hr","maxTime": "4 hr","distance": "1 mi","totalRaps": 3,"longestRap": "65 ft"}
  {"name": "Archer Creek","state": "OR","area": "Coastal Range","coordinates": "45.540277777778, -123.55055555556","rating": "3C1 III","minTime": "","maxTime": "","distance": "1.5 mi","totalRaps": 10,"longestRap": "70 ft"}
  {"name": "Ash Creek Canyon","state": "AZ","area": "Pinaleno Mountains","coordinates": "32.7275, -109.89527777778","rating": "3C IV","minTime": "6 hr","maxTime": "11 hr","distance": "6.2 mi","totalRaps": 6,"longestRap": "170 ft"}
  {"name": "Atlas Canyon","state": "CA","area": "Nopah Range","coordinates": "36.008055555556, -116.09111111111","rating": "3A IV","minTime": "","maxTime": "","distance": "13 mi","totalRaps": 8,"longestRap": "360 ft"}
  {"name": "Avocado Canyon","state": "AZ","area": "Mogollon Rim","coordinates": "34.56, -111.44083333333","rating": "3A III","minTime": "3 hr","maxTime": "7 hr","distance": "5.5 mi","totalRaps": 5,"longestRap": "130 ft"}
  {"name": "Axis Mundi Canyon","state": "CA","area": "Big Tujunga Region","coordinates": "34.303055555556, -118.18472222222","rating": "3A IV","minTime": "9 hr","maxTime": "11 hr","distance": "7.3 mi","totalRaps": 3,"longestRap": "190 ft"}
  {"name": "Bailey Canyon","state": "CA","area": "San Gabriels Front Range","coordinates": "34.184444444444, -118.05888888889","rating": "3A III","minTime": "","maxTime": "5 hr","distance": "3 mi","totalRaps": 12,"longestRap": "110 ft"}
  {"name": "Bandy Canyon","state": "CA","area": "San Diego","coordinates": "33.063055555556, -116.96111111111","rating": "3B III","minTime": "6 hr","maxTime": "9 hr","distance": "4.2 mi","totalRaps": 5,"longestRap": "170 ft"}
  {"name": "Barrister von Nedla","state": "CA","area": "Big Tujunga Region","coordinates": "34.300555555556, -118.29222222222","rating": "3A II","minTime": "","maxTime": "","distance": "1.4 mi","totalRaps": 2,"longestRap": "30 ft"}
  {"name": "Bat Canyon","state": "CA","area": "Funeral Mountains","coordinates": "36.3375, -116.51361111111","rating": "4A III R","minTime": "","maxTime": "","distance": "6 mi","totalRaps": 1,"longestRap": "515 ft"}
  {"name": "Bear Creek","state": "CA","area": "Santa Rosa Mountains","coordinates": "33.619722222222, -116.34027777778","rating": "3A III","minTime": "6 hr","maxTime": "9 hr","distance": "7 mi","totalRaps": 3,"longestRap": "180 ft"}
  {"name": "Bear Creek Canyon","state": "CO","area": "Ouray","coordinates": "37.999444444444, -107.63388888889","rating": "3C3 III R","minTime": "","maxTime": "","distance": "4 mi","totalRaps": 6,"longestRap": "100 ft"}
  {"name": "Behemoth Canyon","state": "CA","area": "Cottonwood Mountains","coordinates": "36.660555555556, -117.34555555556","rating": "3A IV","minTime": "","maxTime": "10 hr","distance": "9 mi","totalRaps": 5,"longestRap": "270 ft"}
  {"name": "Benign Canyon","state": "UT","area": "Angel Point","coordinates": "38.258888888889, -110.54722222222","rating": "3A II","minTime": "2 hr","maxTime": "3 hr","distance": "2.8 mi","totalRaps": 3,"longestRap": "60 ft"}
  {"name": "Big Creek (Canyon of the Dammed)","state": "CA","area": "Sierra National Forest","coordinates": "37.216388888889, -119.23083333333","rating": "3C III","minTime": "5 hr","maxTime": "7 hr","distance": "2.5 mi","totalRaps": 13,"longestRap": "195 ft"}
  {"name": "Big Wash (West Fork) and Real Hairy","state": "CO","area": "Colorado National Monument","coordinates": "39.170277777778, -108.25777777778","rating": "3B II","minTime": "5 hr","maxTime": "7 hr","distance": "3 mi","totalRaps": 5,"longestRap": "85 ft"}
  {"name": "Bonita Canyon (Lytle Creek)","state": "CA","area": "Lytle Creek Area","coordinates": "34.236666666667, -117.49666666667","rating": "3B III","minTime": "4.5 hr","maxTime": "6 hr","distance": "1.7 mi","totalRaps": 4,"longestRap": "160 ft"}
  {"name": "Boy Scout Canyon","state": "NV","area": "Lake Mead NRA","coordinates": "35.973055555556, -114.76916666667","rating": "3A III","minTime": "5 hr","maxTime": "8 hr","distance": "3.5 mi","totalRaps": 2,"longestRap": "340 ft"}
  {"name": "Breitenbush River (South Fork North Fork)","state": "OR","area": "Cascade Mountains","coordinates": "44.765, -121.83194444444","rating": "3C IV R","minTime": "","maxTime": "","distance": "3.6 mi","totalRaps": 4,"longestRap": "100 ft"}
  {"name": "Bridal Veil Creek","state": "OR","area": "Columbia River Gorge","coordinates": "45.553611111111, -122.18","rating": "3C2 II","minTime": "3 hr","maxTime": "5 hr","distance": "1.3 mi","totalRaps": 5,"longestRap": "100 ft"}
  {"name": "Brown Dam (via Ken Burton)","state": "CA","area": "San Gabriels Front Range","coordinates": "34.237777777778, -118.18138888889","rating": "3A III","minTime": "3 hr","maxTime": "6 hr","distance": "12.7 mi","totalRaps": 1,"longestRap": "65 ft"}
  {"name": "Bull Canyon","state": "CA","area": "Ice House","coordinates": "34.198611111111, -117.56472222222","rating": "3A IV","minTime": "9 hr","maxTime": "12 hr","distance": "9.26 mi","totalRaps": 6,"longestRap": "165 ft"}
  {"name": "Burr Slot","state": "UT","area": "Poison Springs","coordinates": "38.1725, -110.46805555556","rating": "3A II R","minTime": "4 hr","maxTime": "5.5 hr","distance": "6.5 mi","totalRaps": 1,"longestRap": "197 ft"}
  {"name": "Butte Creek","state": "OR","area": "Cascade Mountains","coordinates": "44.920833333333, -122.51111111111","rating": "3C I","minTime": "1 hr","maxTime": "3 hr","distance": "1.5 mi","totalRaps": 3,"longestRap": "105 ft"}
  {"name": "Cabin Creek","state": "OR","area": "Columbia River Gorge","coordinates": "45.687222222222, -121.69638888889","rating": "3C I","minTime": "2 hr","maxTime": "3 hr","distance": "1 mi","totalRaps": 3,"longestRap": "150 ft"}
  {"name": "Canyon Creek (Opho)","state": "CA","area": "Tahoe National Forest","coordinates": "39.158611111111, -120.83861111111","rating": "3C III R","minTime": "8 hr","maxTime": "12 hr","distance": "4.5 mi","totalRaps": 20,"longestRap": "110 ft"}
  {"name": "Canyon Creek (San Juans)","state": "CO","area": "Durango","coordinates": "37.519722222222, -107.77694444444","rating": "3C1 III","minTime": "5.5 hr","maxTime": "","distance": "7 mi","totalRaps": 2,"longestRap": "100 ft"}
  {"name": "Cascade Canyon","state": "CA","area": "East Fork San Gabriel","coordinates": "34.211944444444, -117.66138888889","rating": "3A I","minTime": "1.5 hr","maxTime": "3 hr","distance": "2.4 mi","totalRaps": 3,"longestRap": "140 ft"}
  {"name": "Cascade Creek","state": "CO","area": "Ouray","coordinates": "38.029444444444, -107.65111111111","rating": "3C2 III R","minTime": "8 hr","maxTime": "12 hr","distance": "3.5 mi","totalRaps": 14,"longestRap": "255 ft"}
  {"name": "Cascade Creek (Upper) (Durango)","state": "CO","area": "Durango","coordinates": "37.746666666667, -107.84833333333","rating": "3C1 III","minTime": "7 hr","maxTime": "9 hr","distance": "6.8 mi","totalRaps": 8,"longestRap": "135 ft"}
  {"name": "Chalk Creek Canyon","state": "AZ","area": "Sierra Ancha Mountains","coordinates": "33.663055555556, -110.85277777778","rating": "4A II","minTime": "3 hr","maxTime": "5 hr","distance": "5 mi","totalRaps": 1,"longestRap": "30 ft"}
  {"name": "Change Creek","state": "WA","area": "Alpine Lakes","coordinates": "47.434166666667, -121.66666666667","rating": "3C II","minTime": "3 hr","maxTime": "6 hr","distance": "1.1 mi","totalRaps": 6,"longestRap": "140 ft"}
  {"name": "Christopher Creek Gorge","state": "AZ","area": "Arizona","coordinates": "34.311388888889, -111.06166666667","rating": "3C II","minTime": "2 hr","maxTime": "6 hr","distance": "2 mi","totalRaps": 4,"longestRap": "42 ft"}
  {"name": "Church Rock Canyon","state": "CA","area": "Catalina Island","coordinates": "33.312222222222, -118.32472222222","rating": "3C IV","minTime": "6 hr","maxTime": "9 hr","distance": "4.7 mi","totalRaps": 4,"longestRap": "70 ft"}
  {"name": "Clark Gulch","state": "CA","area": "East Fork San Gabriel","coordinates": "34.289166666667, -117.71777777778","rating": "3B V","minTime": "21 hr","maxTime": "","distance": "14.5 mi","totalRaps": 8,"longestRap": "160 ft"}
  {"name": "Classic Canyon","state": "CA","area": "Big Tujunga Region","coordinates": "34.303333333333, -118.16555555556","rating": "3A II","minTime": "3.5 hr","maxTime": "","distance": "3.3 mi","totalRaps": 3,"longestRap": "140 ft"}
  {"name": "Corbett Creek","state": "CO","area": "Ouray","coordinates": "38.045, -107.70444444444","rating": "3C1 III R","minTime": "6.5 hr","maxTime": "10 hr","distance": "5 mi","totalRaps": 12,"longestRap": "190 ft"}
  {"name": "Cougar Canyon (Anza Borrego Desert)","state": "CA","area": "Anza Borrego Desert","coordinates": "33.356111111111, -116.47805555556","rating": "3B III","minTime": "6 hr","maxTime": "14 hr","distance": "4.7 mi","totalRaps": 13,"longestRap": "70 ft"}
